[
  {
    "province": "Đà Nẵng",
    "title": "Cầu Rồng Đà Nẵng",
    "content": "Biểu tượng của thành phố Đà Nẵng, phun lửa và phun nước vào cuối tuần.",
    "category": "attraction",
    "latitude": 16.0611,
    "longitude": 108.2272,
    "costEstimate": 0
  },
  {
    "province": "Đà Nẵng",
    "title": "Bán đảo Sơn Trà & Chùa Linh Ứng",
    "content": "Nơi có bức tượng Phật Bà Quan Âm cao nhất Việt Nam hướng ra biển.",
    "category": "attraction",
    "latitude": 16.1008,
    "longitude": 108.2778,
    "costEstimate": 0
  },
  {
    "province": "Đà Nẵng",
    "title": "Khu du lịch Sun World Bà Nà Hills",
    "content": "Khu vui chơi trên đỉnh núi Chúa nổi tiếng với Cầu Vàng (Golden Bridge).",
    "category": "attraction",
    "latitude": 15.9984,
    "longitude": 107.9972,
    "costEstimate": 900000
  },
  {
    "province": "Đà Nẵng",
    "title": "Danh thắng Ngũ Hành Sơn",
    "content": "Cụm 5 ngọn núi đá vôi với hệ thống hang động và chùa chiền cổ kính.",
    "category": "attraction",
    "latitude": 16.0028,
    "longitude": 108.2639,
    "costEstimate": 40000
  },
  {
    "province": "Đà Nẵng",
    "title": "Mỳ Quảng Bà Mua",
    "content": "Địa điểm thưởng thức mỳ Quảng tôm thịt gà chuẩn vị miền Trung.",
    "category": "restaurant",
    "latitude": 16.0658,
    "longitude": 108.2192,
    "costEstimate": 45000
  },
  {
    "province": "Đà Nẵng",
    "title": "Bánh tráng cuốn thịt heo Trần",
    "content": "Đặc sản bánh tráng thịt heo hai đầu da chấm mắm nêm đậm đà.",
    "category": "restaurant",
    "latitude": 16.0622,
    "longitude": 108.2167,
    "costEstimate": 120000
  }
]
